{
    "version": 0.6,
    "generator": "Overpass API 0.7.60.6 e2dc3e5b",
    "osm3s": {
        "timestamp_osm_base": "2023-06-14T18:41:16Z",
        "copyright": "The data included in this document is from www.openstreetmap.org. The data is made available under ODbL."
    },
    "elements": [
        {
            "type": "node",
            "id": 247887464,
            "lat": 46.0718261,
            "lon": 11.1404686,
            "tags": {
                "amenity": "restaurant",
                "name": "Pizzeria Al Villaggio"
            }
        },
        {
            "type": "node",
            "id": 258441546,
            "lat": 45.9171451,
            "lon": 11.0530998,
            "tags": {
                "addr:housenumber": "56",
                "addr:street": "Via Panizza",
                "amenity": "restaurant",
                "cuisine": "pizza",
                "name": "Pizzeria \"Le palme\"",
                "phone": "+39 0464 411201",
                "wheelchair": "yes"
            }
        },
        {
            "type": "node",
            "id": 259973562,
            "lat": 46.1096102,
            "lon": 11.1402622,
            "tags": {
                "addr:city": "Trento",
                "addr:housenumber": "2",
                "addr:street": "Via del Lavaron",
                "amenity": "restaurant",
                "name": "Il bosco incantato",
                "phone": "+39 0461 960826"
            }
        },
        {
            "type": "node",
            "id": 261081683,
            "lat": 46.2789911,
            "lon": 11.4354671,
            "tags": {
                "amenity": "restaurant",
                "name": "Agritur"
            }
        },
        {
            "type": "node",
            "id": 261086637,
            "lat": 46.2712502,
            "lon": 11.417343,
            "tags": {
                "amenity": "restaurant",
                "name": "Pizzeria La Ruota"
            }
        },
        {
            "type": "node",
            "id": 262650779,
            "lat": 45.7691288,
            "lon": 10.8108292,
            "tags": {
                "addr:city": "Malcesine",
                "addr:country": "IT",
                "addr:postcode": "37018",
                "addr:street": "Localit\u00e0 Paina",
                "amenity": "restaurant",
                "contact:email": "info@lidopaina.it",
                "contact:phone": "+39 045 7400587",
                "contact:website": "http://www.lidopaina.it",
                "cuisine": "italian;pizza;seafood",
                "name": "Ristorante Lido Paina",
                "outdoor_seating": "yes",
                "wheelchair": "yes"
            }
        },
        {
            "type": "node",
            "id": 267649391,
            "lat": 46.2148653,
            "lon": 11.1168418,
            "tags": {
                "amenity": "restaurant",
                "cuisine": "pizza",
                "name": "Pizzeria Al Caminetto"
            }
        },
        {
            "type": "node",
            "id": 268421250,
            "lat": 46.0856765,
            "lon": 11.2153436,
            "tags": {
                "amenity": "restaurant",
                "name": "Ristorante Argentino \u00a8Sapori di Patagonia\u00a8"
            }
        },
        {
            "type": "node",
            "id": 268430904,
            "lat": 46.0674055,
            "lon": 11.1243864,
            "tags": {
                "addr:city": "Trento",
                "addr:country": "IT",
                "addr:housenumber": "8",
                "addr:postcode": "38122",
                "addr:street": "Via Roggia Grande",
                "amenity": "restaurant",
                "contact:facebook": "https://www.facebook.com/DallaSoraGiovanna",
                "contact:phone": "+39 0461 095967",
                "contact:website": "https://dallasoragiovanna.it/",
                "internet_access": "yes",
                "internet_access:fee": "no",
                "name": "Dalla Sora Giovanna",
                "opening_hours": "Mo-Sa 12:00-15:00, 19:00-23:00",
                "operator": "La & Gio Srls",
                "ref:vatin": "IT02563280227"
            }
        },
        {
            "type": "node",
            "id": 268432521,
            "lat": 46.066267,
            "lon": 11.1229923,
            "tags": {
                "addr:city": "Trento",
                "addr:country": "IT",
                "addr:housenumber": "10",
                "addr:postcode": "38122",
                "addr:street": "Via Santissima Trinit\u00e1",
                "amenity": "restaurant",
                "name": "Trattoria Al Tino"
            }
        },
        {
            "type": "node",
            "id": 268435080,
            "lat": 46.0659754,
            "lon": 11.1238802,
            "tags": {
                "addr:city": "Trento",
                "addr:country": "IT",
                "addr:housenumber": "15",
                "addr:postcode": "38122",
                "addr:street": "Piazza Giovanni Battista Garzetti",
                "amenity": "restaurant",
                "name": "Trattoria Al Mercato",
                "outdoor_seating": "yes"
            }
        },
        {
            "type": "node",
            "id": 268435081,
            "lat": 46.0658302,
            "lon": 11.1236344,
            "tags": {
                "addr:city": "Trento",
                "addr:country": "IT",
                "addr:housenumber": "20",
                "addr:postcode": "38122",
                "addr:street": "Prima Androna di Borgo Nuovo",
                "amenity": "restaurant",
                "contact:email": "info@3portoni.it",
                "contact:facebook": "https://www.facebook.com/ristoranteborgonuovotrento/",
                "contact:phone": "+39 0461 261375",
                "contact:website": "http://3portoni.it/",
                "cuisine": "fish;pizza",
                "name": "Borgo Nuovo Trento",
                "operator": "Altin Plaku S.N.C.",
                "outdoor_seating": "yes",
                "ref:vatin": "IT01917760223",
                "surveillance": "indoor"
            }
        },
        {
            "type": "node",
            "id": 268803099,
            "lat": 46.2779665,
            "lon": 11.4452067,
            "tags": {
                "amenity": "restaurant",
                "cuisine": "regional",
                "name": "Agritur Maso Sorte"
            }
        },
        {
            "type": "node",
            "id": 269145543,
            "lat": 45.8949163,
            "lon": 10.8702292,
            "tags": {
                "addr:city": "Arco",
                "addr:country": "IT",
                "addr:housenumber": "5",
                "addr:postcode": "38062",
                "addr:street": "Via Monte Brione",
                "amenity": "restaurant",
                "contact:website": "www.allagrotta.com",
                "cuisine": "swiss",
                "indoor_seating": "yes",
                "name": "Alla Grotta",
                "outdoor_seating": "yes",
                "phone": "+39 0464 553244",
                "ref:vatin": "00658960224",
                "website": "http://allagrotta.com"
            }
        },
        {
            "type": "node",
            "id": 269193687,
            "lat": 46.0752383,
            "lon": 11.1251318,
            "tags": {
                "addr:city": "Trento",
                "addr:housenumber": "103",
                "addr:postcode": "38122",
                "addr:street": "Via della Malvasia",
                "amenity": "restaurant",
                "check_date:opening_hours": "2020-12-18",
                "contact:email": "contecosi@yahoo.it",
                "contact:fax": "+39 0461 987303",
                "contact:phone": "+39 0461 987303",
                "contact:website": "http://www.alvesuvio.it/",
                "cuisine": "pizza;fish;regional",
                "diet:vegetarian": "yes",
                "entrance": "main",
                "name": "Pizzeria Vesuvio",
                "opening_hours": "Mo,We-Su 12:00-14:30,18:00-02:00; Tu off",
                "ref:vatin": "IT00828430223",
                "wheelchair": "yes"
            }
        },
        {
            "type": "node",
            "id": 269193730,
            "lat": 46.0647702,
            "lon": 11.123413,
            "tags": {
                "addr:city": "Trento",
                "addr:country": "IT",
                "addr:housenumber": "13",
                "addr:postcode": "38122",
                "addr:street": "Piazza di Fiera",
                "amenity": "restaurant",
                "contact:email": "info@birreriapedavena.com",
                "contact:phone": "+39 0461 986255",
                "contact:website": "http://www.birreriapedavena.com",
                "name": "Birreria Pizzeria Pedavena",
                "opening_hours": "Mo,We 09:00-24:00; Tu 00:00-00:30; Th,Fr 00:00-00:30,09:00-24:00; Sa,Su 00:00-01:00,09:00-24:00",
                "operator": "Ghesla Andrea",
                "outdoor_seating": "yes",
                "ref:vatin": "IT01401290224",
                "wheelchair": "limited"
            }
        },
        {
            "type": "node",
            "id": 269193732,
            "lat": 46.0644782,
            "lon": 11.1232307,
            "tags": {
                "addr:city": "Trento",
                "addr:country": "IT",
                "addr:housenumber": "16",
                "addr:postcode": "38122",
                "addr:street": "Via Santa Croce",
                "amenity": "restaurant",
                "contact:email": "trattoria_al_volt@yahoo.it",
                "contact:phone": "+39 0461 983776",
                "contact:website": "http://tienne.it/alvolt/",
                "cuisine": "italian;regional",
                "name": "Trattoria al Volt",
                "opening_hours": "12:00-15:00,19:30-24:00",
                "ref:vatin": "IT02045650229",
                "short_name": "al Volt",
                "wheelchair": "no"
            }
        },
        {
            "type": "node",
            "id": 269348445,
            "lat": 46.1601698,
            "lon": 11.2345535,
            "tags": {
                "amenity": "restaurant",
                "name": "Albergo Dolomiti"
            }
        },
        {
            "type": "node",
            "id": 269356399,
            "lat": 46.0683757,
            "lon": 11.2539178,
            "tags": {
                "amenity": "restaurant",
                "name": "Pizzeria Anna"
            }
        },
        {
            "type": "node",
            "id": 269358770,
            "lat": 46.2620421,
            "lon": 11.3546478,
            "tags": {
                "amenity": "restaurant",
                "name": "Pizzeria 4 Venti",
                "wheelchair": "limited"
            }
        },
        {
            "type": "node",
            "id": 269512908,
            "lat": 46.0707264,
            "lon": 11.1246538,
            "tags": {
                "addr:city": "Trento",
                "addr:country": "IT",
                "addr:housenumber": "92",
                "addr:postcode": "38122",
                "addr:street": "Via del Suffragio",
                "amenity": "restaurant",
                "contact:phone": "+39 0461 239840",
                "cuisine": "pizza",
                "name": "Pizzeria Primavera"
            }
        },
        {
            "type": "node",
            "id": 271009437,
            "lat": 45.9120449,
            "lon": 10.8365826,
            "tags": {
                "amenity": "restaurant",
                "cuisine": "regional",
                "name": "Ristorante alle Foci da Rita"
            }
        },
        {
            "type": "node",
            "id": 276923561,
            "lat": 46.1339585,
            "lon": 11.2571178,
            "tags": {
                "amenity": "restaurant",
                "name": "New Lido - Ristorante Pinseria"
            }
        },
        {
            "type": "node",
            "id": 277298458,
            "lat": 45.936503,
            "lon": 11.7241316,
            "tags": {
                "addr:housenumber": "7",
                "addr:postcode": "36022",
                "addr:street": "Via Piovega di Sotto",
                "amenity": "restaurant",
                "brewery": "Augustiner",
                "cuisine": "regional",
                "internet_access": "wlan",
                "internet_access:fee": "no",
                "microbrewery": "no",
                "name": "Birreria Ristorante Cornale",
                "operator": "Pizzeria Birreria Osteria Cornale s.n.c. di Cornale Romano & C.",
                "outdoor_seating": "yes",
                "phone": "+39 0424 432059",
                "ref:vatin": "IT01361670241",
                "website": "www.cornale.com"
            }
        },
        {
            "type": "node",
            "id": 277298459,
            "lat": 45.898766,
            "lon": 11.6928105,
            "tags": {
                "amenity": "restaurant",
                "name": "Ristorante Pizzeria Impero"
            }
        },
        {
            "type": "node",
            "id": 281692703,
            "lat": 46.272539,
            "lon": 11.4638938,
            "tags": {
                "amenity": "restaurant",
                "cuisine": "regional",
                "name": "Malga Salanzada"
            }
        },
        {
            "type": "node",
            "id": 285976123,
            "lat": 46.1360828,
            "lon": 11.3065372,
            "tags": {
                "amenity": "restaurant",
                "cuisine": "regional",
                "ele": "1705",
                "name": "Malga Cambroncoi"
            }
        },
        {
            "type": "node",
            "id": 286295847,
            "lat": 45.8156916,
            "lon": 11.5261015,
            "tags": {
                "amenity": "restaurant",
                "name": "Malga Granezza"
            }
        },
        {
            "type": "node",
            "id": 286507919,
            "lat": 46.3537799,
            "lon": 11.4654487,
            "tags": {
                "amenity": "restaurant",
                "name": "Auerleger Alm - Malga Ora",
                "name:de": "Auerleger Alm",
                "name:it": "Malga Ora"
            }
        },
        {
            "type": "node",
            "id": 288938675,
            "lat": 46.0647594,
            "lon": 11.1504525,
            "tags": {
                "addr:city": "Trento",
                "addr:housenumber": "10",
                "addr:postcode": "38123",
                "addr:street": "Via Sommarive",
                "amenity": "restaurant",
                "check_date:currency:XBT": "2023-03-09",
                "cuisine": "pizza",
                "currency:XBT": "yes",
                "name": "Pizzeria OroStube",
                "opening_hours": "Mo-Fr 11:45-14:00, 18:30-22:00; Sa 18:30-22:00",
                "payment:bitcoin:operator": "inbitcoin.it",
                "website": "http://www.orostube.it/",
                "wheelchair": "yes"
            }
        },
        {
            "type": "node",
            "id": 289225782,
            "lat": 46.0661234,
            "lon": 11.1548195,
            "tags": {
                "addr:city": "Povo",
                "addr:housenumber": "14",
                "addr:postcode": "38123",
                "addr:street": "Piazza Giannatonio Manci",
                "amenity": "restaurant",
                "capacity": "50",
                "cuisine": "pizza",
                "email": "info@pizzeriasalesa.it",
                "name": "Pizzeria Sales\u00e0",
                "opening_hours": "Tu-Fr 12:00-14:00, We,Th,Su 19:00-22:30, Fr,Sa 19:00-23:00",
                "phone": "+39 0461 810484",
                "website": "http://www.pizzeriasalesa.it",
                "wheelchair": "limited"
            }
        },
        {
            "type": "node",
            "id": 289741261,
            "lat": 46.3952497,
            "lon": 11.3857603,
            "tags": {
                "amenity": "restaurant",
                "cuisine": "italian;pizza",
                "name": "Gasthof Wieser",
                "phone": "+39 0471 615152"
            }
        },
        {
            "type": "node",
            "id": 289741267,
            "lat": 46.3966783,
            "lon": 11.3942765,
            "tags": {
                "amenity": "restaurant",
                "name": "Gasthof Weber"
            }
        },
        {
            "type": "node",
            "id": 289878227,
            "lat": 46.3681076,
            "lon": 11.3544362,
            "tags": {
                "amenity": "restaurant",
                "name": "Krone",
                "opening_hours": "12:30-14:00,19:30-21:30",
                "website": "https://www.gasthof-krone.it"
            }
        },
        {
            "type": "node",
            "id": 289891673,
            "lat": 46.3652561,
            "lon": 11.353276,
            "tags": {
                "addr:city": "Aldein",
                "addr:city:de": "Aldein",
                "addr:city:it": "Aldino",
                "addr:housenumber": "1",
                "addr:postcode": "39040",
                "addr:street": "Dachselweg - Via Dachsel",
                "addr:street:de": "Dachselweg",
                "addr:street:it": "Via Dachsel",
                "amenity": "restaurant",
                "name": "Ploner"
            }
        },
        {
            "type": "node",
            "id": 290998952,
            "lat": 46.1929312,
            "lon": 11.1566275,
            "tags": {
                "amenity": "restaurant",
                "cuisine": "regional",
                "name": "Agriturismo Ai molini",
                "opening_hours": "We-Su 12:00-14:00,18:30-21:30",
                "phone": "+39 0461 651088",
                "website": "http://www.agrituraimolini.it/"
            }
        },
        {
            "type": "node",
            "id": 292021580,
            "lat": 46.0753126,
            "lon": 11.1378543,
            "tags": {
                "addr:city": "Trento",
                "addr:country": "IT",
                "addr:housenumber": "36",
                "addr:postcode": "38121",
                "addr:street": "Via San Vito",
                "amenity": "restaurant",
                "contact:fax": "+39 0461 987031",
                "contact:phone": "+39 0461 987031",
                "cuisine": "pizza",
                "name": "Pizzeria Quattro Stagioni",
                "opening_hours": "Tu-Su 12:00-14:00; Tu-Su 18:30-23:00",
                "operator": "Ristoranti Trentini Associati srl",
                "ref:vatin": "IT00582810222",
                "wheelchair": "yes"
            }
        },
        {
            "type": "node",
            "id": 292258759,
            "lat": 46.3381184,
            "lon": 11.0633214,
            "tags": {
                "amenity": "restaurant",
                "cuisine": "pizza;regional;italian",
                "name": "Victor"
            }
        },
        {
            "type": "node",
            "id": 292968510,
            "lat": 46.3676799,
            "lon": 11.3604029,
            "tags": {
                "amenity": "restaurant",
                "cuisine": "pizza",
                "name": "Pizzeria Waldrast",
                "opening_hours": "15:00-01:00 \"Pizza after 17:00\"",
                "takeaway": "yes"
            }
        },
        {
            "type": "node",
            "id": 293866039,
            "lat": 46.060124,
            "lon": 11.237059,
            "tags": {
                "amenity": "restaurant",
                "name": "Turismo"
            }
        },
        {
            "type": "node",
            "id": 298086066,
            "lat": 46.0939699,
            "lon": 11.1305891,
            "tags": {
                "addr:city": "Martignano",
                "addr:housenumber": "12/6",
                "addr:postcode": "38121",
                "addr:street": "Via ai Bolleri",
                "air_conditioning": "yes",
                "amenity": "restaurant",
                "bar": "yes",
                "contact:email": "ai.canopi@yahoo.it",
                "contact:phone": "+39 461 1715283",
                "contact:website": "https://www.ristorantiindianitrento.com/",
                "cuisine": "indian;pizza;regional",
                "ele": "0",
                "email": "aicanopi@yahoo.it",
                "name": "Ristorante Ai Canopi",
                "opening_hours": "Mo-Su 11:30-14:30, 18:00-23:30",
                "operator": "New Delhi S.N.C.",
                "phone": "+39 461 823663",
                "ref:vatin": "IT02083070223",
                "smoking": "outside",
                "takeaway": "yes"
            }
        },
        {
            "type": "node",
            "id": 298274280,
            "lat": 46.3145139,
            "lon": 11.222677,
            "tags": {
                "amenity": "restaurant",
                "name": "Caffe Terzer",
                "wheelchair": "yes"
            }
        },
        {
            "type": "node",
            "id": 298274283,
            "lat": 46.3132532,
            "lon": 11.2235354,
            "tags": {
                "amenity": "restaurant",
                "created_by": "Potlatch 0.10f",
                "name": "Schwarz Adler Keller",
                "wheelchair": "limited"
            }
        },
        {
            "type": "node",
            "id": 299927723,
            "lat": 46.1158602,
            "lon": 10.8085216,
            "tags": {
                "addr:postcode": "38070",
                "amenity": "restaurant",
                "name": "Rifugio Ghedina",
                "phone": "+39 0465 321808",
                "tourism": "alpine_hut",
                "website": "http://www.trentinorifugi.com/index.php?bsclef=schede_rifugi&ex=html&viewnews=ok&ln=it&id=76&catid=6"
            }
        },
        {
            "type": "node",
            "id": 302730973,
            "lat": 46.2178798,
            "lon": 11.1531916,
            "tags": {
                "addr:housenumber": "2",
                "addr:street": "Localit\u00e0 Cadino",
                "amenity": "restaurant",
                "contact:phone": "+39 0461 650136",
                "contact:phone2": "+39 0461 650082",
                "cuisine": "fish;pizza;regional",
                "name": "Cadino",
                "operator": "Malpaga E. & C. S.N.C.",
                "ref:vatin": "IT01509200224"
            }
        },
        {
            "type": "node",
            "id": 303826370,
            "lat": 46.3093023,
            "lon": 11.6013606,
            "tags": {
                "amenity": "restaurant",
                "cuisine": "pizza",
                "name": "Pizzeria Millenium"
            }
        },
        {
            "type": "node",
            "id": 303828168,
            "lat": 46.3109084,
            "lon": 11.602838,
            "tags": {
                "amenity": "restaurant",
                "cuisine": "austrian;beef_bowl;fine_dining;pizza",
                "name": "Pizzeria L'arcade"
            }
        },
        {
            "type": "node",
            "id": 303832096,
            "lat": 46.3065591,
            "lon": 11.5985512,
            "tags": {
                "amenity": "restaurant",
                "name": "Majestic"
            }
        },
        {
            "type": "node",
            "id": 304632628,
            "lat": 46.2320688,
            "lon": 10.8274323,
            "tags": {
                "addr:city": "Madonna di Campiglio",
                "addr:country": "IT",
                "addr:housenumber": "14",
                "addr:postcode": "38068",
                "addr:street": "Via Pradalago",
                "amenity": "restaurant",
                "name": "Pizzeria Ristorante Belvedere",
                "phone": "+39 0465 440396",
                "website": "https://campigliobelvedere.wixsite.com/belvedere"
            }
        },
        {
            "type": "node",
            "id": 304632837,
            "lat": 46.2325953,
            "lon": 10.8254299,
            "tags": {
                "amenity": "restaurant",
                "name": "Ristorante Pizzeria Le Roi"
            }
        },
        {
            "type": "node",
            "id": 307452820,
            "lat": 45.7532261,
            "lon": 11.2337144,
            "tags": {
                "amenity": "restaurant",
                "name": "Trattoria al Molino"
            }
        },
        {
            "type": "node",
            "id": 308671320,
            "lat": 45.74088,
            "lon": 11.2599866,
            "tags": {
                "amenity": "restaurant",
                "internet_access": "wlan",
                "name": "Albergo Ristorante Belvedere",
                "tourism": "hotel"
            }
        },
        {
            "type": "node",
            "id": 311389289,
            "lat": 45.755159,
            "lon": 11.2155786,
            "tags": {
                "amenity": "restaurant",
                "name": "Albergo Ristorante Da Penzo"
            }
        },
        {
            "type": "node",
            "id": 311389293,
            "lat": 45.7552978,
            "lon": 11.2167081,
            "tags": {
                "addr:city": "Valli del Pasubio",
                "addr:housenumber": "26",
                "addr:postcode": "36030",
                "addr:street": "Via Piazza Alta",
                "amenity": "restaurant",
                "contact:facebook": "https://www.facebook.com/CarlaFailela/",
                "contact:phone": "+39 0445 630047",
                "email": "info@carlafailela.it",
                "internet_access": "wlan",
                "leisure": "spa",
                "name": "Carla Failela",
                "old_name": "Locanda Bar da Bruno",
                "opening_hours": "Mo-Th 09:00-23:00; We off; Fr-Su 09:00-24:00",
                "phone": "+39 0445 590370",
                "ref:vatin": "IT00055070247",
                "tourism": "hotel",
                "website": "https://www.carlafailela.it/"
            }
        },
        {
            "type": "node",
            "id": 311389298,
            "lat": 45.755695,
            "lon": 11.2151007,
            "tags": {
                "amenity": "restaurant",
                "name": "Pizzeria trattoria Fora dai Pensieri"
            }
        },
        {
            "type": "node",
            "id": 311389300,
            "lat": 45.7550877,
            "lon": 11.2185224,
            "tags": {
                "amenity": "restaurant",
                "name": "Trattoria alla posta"
            }
        },
        {
            "type": "node",
            "id": 317526677,
            "lat": 45.9886994,
            "lon": 11.3006401,
            "tags": {
                "amenity": "restaurant",
                "name": "Paoli Hotel - Antica Trattoria alla Vedova",
                "tourism": "hotel"
            }
        },
        {
            "type": "node",
            "id": 319917018,
            "lat": 46.1121336,
            "lon": 11.0470198,
            "tags": {
                "amenity": "restaurant",
                "cuisine": "regional",
                "name": "Agritur Le Vallene"
            }
        },
        {
            "type": "node",
            "id": 322895287,
            "lat": 46.2825141,
            "lon": 11.5229928,
            "tags": {
                "amenity": "restaurant",
                "name": "La Trattoria"
            }
        },
        {
            "type": "node",
            "id": 323622387,
            "lat": 45.7599369,
            "lon": 11.3948082,
            "tags": {
                "amenity": "restaurant",
                "ele": "1196",
                "name": "Baita Genzianella (M.A.S.C.I. Santorso)"
            }
        },
        {
            "type": "node",
            "id": 330499384,
            "lat": 46.3397953,
            "lon": 11.2392352,
            "tags": {
                "amenity": "restaurant",
                "cuisine": "pizza",
                "name": "Ristorante Pizzeria Pernhof"
            }
        },
        {
            "type": "node",
            "id": 333783337,
            "lat": 46.3149326,
            "lon": 10.8125093,
            "tags": {
                "amenity": "restaurant",
                "cuisine": "regional",
                "name": "Al cervo"
            }
        },
        {
            "type": "node",
            "id": 333791569,
            "lat": 46.230922,
            "lon": 10.8265841,
            "tags": {
                "amenity": "restaurant",
                "check_date:opening_hours": "2022-07-23",
                "cuisine": "regional",
                "name": "La Cantina di Suisse",
                "opening_hours:signed": "no",
                "wheelchair": "no"
            }
        },
        {
            "type": "node",
            "id": 334787448,
            "lat": 46.3824461,
            "lon": 10.9721387,
            "tags": {
                "amenity": "restaurant",
                "cuisine": "regional",
                "name": "Al Pescatore"
            }
        },
        {
            "type": "node",
            "id": 335596730,
            "lat": 46.3525109,
            "lon": 10.9126505,
            "tags": {
                "amenity": "restaurant",
                "cuisine": "regional",
                "name": "El Barba"
            }
        },
        {
            "type": "node",
            "id": 341091742,
            "lat": 46.2155184,
            "lon": 11.0870302,
            "tags": {
                "amenity": "restaurant",
                "name": "Osteria Al Travaion",
                "outdoor_seating": "yes"
            }
        },
        {
            "type": "node",
            "id": 343336537,
            "lat": 45.6908462,
            "lon": 11.3726274,
            "tags": {
                "amenity": "restaurant",
                "cuisine": "pizza",
                "name": "Pizzeria Il Pirata",
                "phone": "+390445511315"
            }
        },
        {
            "type": "node",
            "id": 343336577,
            "lat": 45.68532,
            "lon": 11.3782251,
            "tags": {
                "amenity": "restaurant",
                "cuisine": "pizza",
                "name": "Pizzeria Da Angelo",
                "opening_hours": "PH,We-Mo 17:00-01:00",
                "wheelchair": "yes"
            }
        },
        {
            "type": "node",
            "id": 343439199,
            "lat": 45.724141,
            "lon": 11.2809149,
            "tags": {
                "amenity": "restaurant",
                "name": "Alle Asse"
            }
        },
        {
            "type": "node",
            "id": 346355765,
            "lat": 45.7450722,
            "lon": 11.2383836,
            "tags": {
                "addr:city": "Valli del Pasubio",
                "addr:housenumber": "10",
                "addr:postcode": "36030",
                "addr:street": "Via Gisbenti",
                "amenity": "restaurant",
                "name": "Osteria da Fabio e Luisa",
                "phone": "+39 0445 630531",
                "smoking": "outside"
            }
        },
        {
            "type": "node",
            "id": 348237880,
            "lat": 45.6827383,
            "lon": 11.3758934,
            "tags": {
                "addr:city": "San Vito di Leguzzano",
                "addr:country": "IT",
                "addr:housenumber": "41",
                "addr:postcode": "36030",
                "addr:street": "Via Sant'Antonio",
                "amenity": "restaurant",
                "name": "Ristorante Due Mori - specialit\u00e0 pesce",
                "opening_hours": "Tu-Su 09:00-15:30,18:30-01:00",
                "wheelchair": "no"
            }
        },
        {
            "type": "node",
            "id": 355968440,
            "lat": 46.1891991,
            "lon": 11.1287253,
            "tags": {
                "addr:city": "San Michele all'Adige",
                "addr:country": "IT",
                "addr:housenumber": "47",
                "addr:postcode": "38098",
                "addr:street": "Via Don A. Tamanini",
                "amenity": "restaurant",
                "contact:phone": "+39 0461 650699",
                "cuisine": "pizza;regional",
                "diet:gluten_free": "yes",
                "diet:lactose_free": "yes",
                "name": "Capriccio",
                "operator": "Corazza Barbara, Mauro & C.",
                "ref:vatin": "IT02160810228"
            }
        },
        {
            "type": "node",
            "id": 357221161,
            "lat": 45.7052049,
            "lon": 11.3310139,
            "tags": {
                "amenity": "restaurant",
                "cuisine": "italian",
                "name": "Trattoria All'Antenna"
            }
        },
        {
            "type": "node",
            "id": 358841673,
            "lat": 46.3202489,
            "lon": 11.231951,
            "tags": {
                "amenity": "restaurant",
                "cuisine": "pizza",
                "name": "Pub Pizzeria Weinstra\u00dfe",
                "name:de": "Pub Pizzeria Weinstra\u00dfe",
                "name:it": "Pub Pizzeria Weinstra\u00dfe",
                "operator": "Zwerger Roswita",
                "ref:vatin": "IT00738220219",
                "website": "http://www.pizzeria-weinstrasse.it/",
                "wheelchair": "limited",
                "wheelchair:description": "Lokal f\u00fcr Rollst\u00fchle geeignet, aber keine Behindertentoilette"
            }
        },
        {
            "type": "node",
            "id": 360171370,
            "lat": 46.3127345,
            "lon": 11.2214485,
            "tags": {
                "amenity": "restaurant",
                "description": "dauerhaft geschlossen\npermanently closed",
                "name": "Zur Rose"
            }
        },
        {
            "type": "node",
            "id": 362796288,
            "lat": 45.7316045,
            "lon": 11.3824395,
            "tags": {
                "amenity": "restaurant",
                "cuisine": "pizza",
                "name": "Ristorante Pizzeria Doremi"
            }
        },
        {
            "type": "node",
            "id": 363578299,
            "lat": 46.3426856,
            "lon": 11.1276835,
            "tags": {
                "amenity": "restaurant",
                "cuisine": "pizza",
                "name": "Pizzeria Credai"
            }
        },
        {
            "type": "node",
            "id": 363579455,
            "lat": 46.364743,
            "lon": 11.1000197,
            "tags": {
                "amenity": "restaurant",
                "name": "Agritur Agostini"
            }
        },
        {
            "type": "node",
            "id": 364122956,
            "lat": 45.7397762,
            "lon": 11.2596881,
            "tags": {
                "addr:city": "Valli del Pasubio",
                "addr:housenumber": "15",
                "addr:postcode": "36030",
                "addr:street": "Via Guglielmo Marconi",
                "amenity": "restaurant",
                "contact:mobile": "+39 320 8776771",
                "contact:phone": "+39 0445 590204",
                "cuisine": "italian;regional",
                "diet:meat": "yes",
                "name": "Bar Trattoria Venezia",
                "operator": "Scocco Stefania",
                "payment:cash": "yes",
                "payment:coins": "yes",
                "payment:credit_cards": "yes",
                "payment:debit_cards": "yes",
                "ref:vatin": "IT03216590244"
            }
        },
        {
            "type": "node",
            "id": 369568235,
            "lat": 45.9256591,
            "lon": 10.8322504,
            "tags": {
                "addr:housenumber": "62",
                "addr:postcode": "38060",
                "addr:street": "Via Villa Calvola",
                "amenity": "restaurant",
                "cuisine": "regional",
                "email": "info@agriturcalvola.it",
                "name": "Agritur Calvola",
                "operator": "Bruno Santoni",
                "phone": "+39 348 5502645",
                "website": "http://www.agriturcalvola.it/"
            }
        },
        {
            "type": "node",
            "id": 370137370,
            "lat": 45.7544042,
            "lon": 11.2674037,
            "tags": {
                "amenity": "restaurant",
                "cuisine": "italian",
                "name": "Agriturismo \"ai Giotti\"",
                "opening_hours": "\"Su prenotazione\""
            }
        },
        {
            "type": "node",
            "id": 370137377,
            "lat": 45.7525363,
            "lon": 11.2708539,
            "tags": {
                "amenity": "restaurant",
                "cuisine": "italian",
                "name": "Corzati"
            }
        },
        {
            "type": "node",
            "id": 371311699,
            "lat": 45.7650853,
            "lon": 10.8098509,
            "tags": {
                "addr:city": "Malcesine",
                "addr:housenumber": "5",
                "addr:postcode": "37018",
                "addr:street": "Piazzetta Boccarra",
                "amenity": "restaurant",
                "cuisine": "italian",
                "email": "info@osteriaallarosa.it",
                "name": "Osteria alla Rosa",
                "website": "http://www.osteriaallarosa.it"
            }
        },
        {
            "type": "node",
            "id": 372639697,
            "lat": 45.723769,
            "lon": 11.4274545,
            "tags": {
                "amenity": "restaurant",
                "name": "Europa"
            }
        },
        {
            "type": "node",
            "id": 388930801,
            "lat": 46.3001554,
            "lon": 11.4475121,
            "tags": {
                "amenity": "restaurant",
                "cuisine": "pizza",
                "name": "La Lanterna"
            }
        },
        {
            "type": "node",
            "id": 388981198,
            "lat": 46.2965692,
            "lon": 11.4994485,
            "tags": {
                "amenity": "restaurant",
                "cuisine": "regional",
                "name": "Agritur Zanon"
            }
        },
        {
            "type": "node",
            "id": 393197242,
            "lat": 46.3111772,
            "lon": 11.283871,
            "tags": {
                "amenity": "restaurant",
                "cuisine": "italian",
                "name": "Kollerhof"
            }
        },
        {
            "type": "node",
            "id": 393414342,
            "lat": 45.7800394,
            "lon": 10.9442018,
            "tags": {
                "amenity": "restaurant"
            }
        },
        {
            "type": "node",
            "id": 409695294,
            "lat": 45.6640965,
            "lon": 10.9428383,
            "tags": {
                "amenity": "restaurant",
                "cuisine": "regional",
                "name": "Trattoria Saloon",
                "outdoor_seating": "yes"
            }
        },
        {
            "type": "node",
            "id": 411740268,
            "lat": 46.4496525,
            "lon": 11.2492078,
            "tags": {
                "amenity": "restaurant",
                "name": "Stroblhof"
            }
        },
        {
            "type": "node",
            "id": 415504641,
            "lat": 46.3256919,
            "lon": 10.8611651,
            "tags": {
                "amenity": "restaurant",
                "cuisine": "pizza;regional",
                "name": "Al Maso Vecchio"
            }
        },
        {
            "type": "node",
            "id": 416983481,
            "lat": 46.123162,
            "lon": 11.2595987,
            "tags": {
                "amenity": "restaurant",
                "name": "Al Mas Bar"
            }
        },
        {
            "type": "node",
            "id": 417675381,
            "lat": 46.0471016,
            "lon": 11.2333835,
            "tags": {
                "amenity": "restaurant",
                "cuisine": "italian",
                "name": "Angi"
            }
        },
        {
            "type": "node",
            "id": 417856704,
            "lat": 45.8751426,
            "lon": 11.0335673,
            "tags": {
                "amenity": "restaurant",
                "cuisine": "pizza",
                "name": "Pizzeria Botti",
                "wheelchair": "yes"
            }
        },
        {
            "type": "node",
            "id": 420525243,
            "lat": 45.7746462,
            "lon": 11.5512937,
            "tags": {
                "addr:city": "Lusiana",
                "addr:housenumber": "11",
                "addr:postcode": "36046",
                "addr:street": "Via Valle di Sopra",
                "amenity": "restaurant",
                "cuisine": "international;italian",
                "name": "Ristorante Fel\u00f9",
                "outdoor_seating": "yes",
                "website": "https://restaurant-felu.business.site/?utm_source=gmb&utm_medium=referral"
            }
        },
        {
            "type": "node",
            "id": 428413446,
            "lat": 45.7838246,
            "lon": 10.821195,
            "tags": {
                "addr:city": "Malcesine",
                "addr:housenumber": "139",
                "addr:postcode": "37018",
                "addr:street": "Via Navene Vecchia",
                "amenity": "restaurant",
                "cuisine": "barbecue",
                "email": "info@speckstube.com",
                "indoor_seating": "yes",
                "name": "Speck Stube Malcesine",
                "note": "Localita' Molini di cal, 1 \u00b7 37018 Malcesine \u00b7 VR \u00b7 Lago di Garda \u00b7 Italia",
                "outdoor_seating": "yes",
                "phone": "+39 045 7401177",
                "website": "http://www.speckstube.com/"
            }
        },
        {
            "type": "node",
            "id": 428639276,
            "lat": 46.0475076,
            "lon": 11.1261306,
            "tags": {
                "addr:city": "Trento",
                "addr:country": "IT",
                "addr:housenumber": "7",
                "addr:postcode": "38123",
                "addr:street": "Via Enrico Fermi",
                "amenity": "restaurant",
                "contact:email": "info@nikys.it",
                "contact:phone": "+39 0461 390828",
                "contact:website": "https://www.nikys.it/",
                "name": "Niky's",
                "opening_hours": "Mo-Su 07:00-23:00;Su 17:00-23:00"
            }
        },
        {
            "type": "node",
            "id": 428644278,
            "lat": 46.0559897,
            "lon": 11.1314758,
            "tags": {
                "addr:city": "Trento",
                "addr:housenumber": "62",
                "addr:postcode": "38122",
                "addr:street": "Via Gocciadoro",
                "amenity": "restaurant",
                "capacity": "100",
                "contact:facebook": "https://www.lototrento.it/",
                "cuisine": "italian",
                "name": "Loto",
                "opening_hours": "Mo-Fr 07:00-14:30,19:00-23:00; Sa 19:00-23:00; Su off",
                "phone": "+39 0461 1863052",
                "smoking": "separated",
                "website": "https://www.lototrento.it/"
            }
        },
        {
            "type": "node",
            "id": 428817942,
            "lat": 45.9742277,
            "lon": 11.2446893,
            "tags": {
                "amenity": "restaurant",
                "name": "Speckstube"
            }
        },
        {
            "type": "node",
            "id": 430531035,
            "lat": 46.0563197,
            "lon": 11.1287617,
            "tags": {
                "addr:city": "Trento",
                "addr:country": "IT",
                "addr:housenumber": "73",
                "addr:postcode": "38123",
                "addr:street": "Viale Verona",
                "amenity": "restaurant",
                "contact:phone": "+39 0461 910076",
                "cuisine": "pizza",
                "name": "Blue Sax",
                "opening_hours": "Su Off",
                "operator": "MAGA S.R.L.",
                "ref:vatin": "IT00668940224"
            }
        },
        {
            "type": "node",
            "id": 430673959,
            "lat": 46.0690767,
            "lon": 11.118671,
            "tags": {
                "addr:city": "Trento",
                "addr:country": "IT",
                "addr:housenumber": "15",
                "addr:postcode": "38122",
                "addr:street": "Via della Prepositura",
                "amenity": "restaurant",
                "cuisine": "chinese",
                "name": "Sapori d'Asia",
                "operator": "Nuova Asia SAS Xie Bingchu & C.",
                "ref:vatin": "IT02270970227"
            }
        },
        {
            "type": "node",
            "id": 431475183,
            "lat": 46.0406051,
            "lon": 11.1329032,
            "tags": {
                "addr:city": "Trento",
                "addr:country": "IT",
                "addr:housenumber": "16",
                "addr:postcode": "38123",
                "addr:street": "Piazzale Europa",
                "amenity": "restaurant",
                "contact:mobile": "+39 3930062248",
                "cuisine": "indian;italian;pizza",
                "fax": "+39 0461 390060",
                "name": "La Terrazza",
                "opening_hours": "Mo-Su 11:30-14:30,17:30-23:30",
                "phone": "+39 0461 390060",
                "wheelchair": "yes"
            }
        },
        {
            "type": "node",
            "id": 431648975,
            "lat": 46.064995,
            "lon": 11.1141049,
            "tags": {
                "addr:city": "Trento",
                "addr:country": "IT",
                "addr:housenumber": "39/4",
                "addr:postcode": "38123",
                "addr:street": "Via Roberto da Sanseverino",
                "amenity": "restaurant",
                "contact:email": "sapori.mediterranei@hotmail.it",
                "contact:phone": "+39 0461 984360",
                "cuisine": "fish;pizza;barbecue",
                "name": "Sapori Mediterranei",
                "opening_hours": "Tu-Su 12:00-14:30,19:00-23:30"
            }
        },
        {
            "type": "node",
            "id": 431658690,
            "lat": 46.0665687,
            "lon": 11.1171685,
            "tags": {
                "addr:city": "Trento",
                "addr:country": "IT",
                "addr:housenumber": "15/B",
                "addr:postcode": "38122",
                "addr:street": "Via Giuseppe Verdi",
                "amenity": "restaurant",
                "contact:facebook": "https://www.facebook.com/PizzeriaDaAlbert/",
                "contact:phone": "+39 0461 231712",
                "cuisine": "pizza",
                "name": "Pizzeria da Albert",
                "outdoor_seating": "yes"
            }
        },
        {
            "type": "node",
            "id": 431658693,
            "lat": 46.0651062,
            "lon": 11.1174849,
            "tags": {
                "addr:city": "Trento",
                "addr:country": "IT",
                "addr:housenumber": "2",
                "addr:postcode": "38122",
                "addr:street": "Via Bernardino Bomporto",
                "amenity": "restaurant",
                "cuisine": "pizza",
                "name": "Ghost Kitchen",
                "outdoor_seating": "yes"
            }
        },
        {
            "type": "node",
            "id": 431658709,
            "lat": 46.0657418,
            "lon": 11.121244,
            "tags": {
                "addr:city": "Trento",
                "addr:country": "IT",
                "addr:housenumber": "1",
                "addr:postcode": "38122",
                "addr:street": "Via degli Orti",
                "alt_name": "Tetley' pub;Tetley's pub;",
                "amenity": "restaurant",
                "contact:email": "info@tetleyspub.it",
                "contact:facebook": "https://www.facebook.com/tetleystrento",
                "contact:fax": "+39 0461 233477",
                "contact:mobile": "+ 39 338 3612632",
                "contact:phone": "+39 0461 233477",
                "contact:website": "https://www.tetleyspub.it/",
                "cuisine": "pizza",
                "name": "Pizzeria Tetley's",
                "opening_hours": "Mo-Su 18:00-24:00; Th 07:00-14:00,18:00-24:00",
                "operator": "Irma S.A.S. & C.",
                "outdoor_seating": "yes",
                "ref:vatin": "IT01709290223",
                "takeaway": "yes"
            }
        },
        {
            "type": "node",
            "id": 431658713,
            "lat": 46.0655854,
            "lon": 11.1222669,
            "tags": {
                "addr:city": "Trento",
                "addr:country": "IT",
                "addr:housenumber": "19",
                "addr:postcode": "38122",
                "addr:street": "Via degli Orti",
                "amenity": "restaurant",
                "contact:email": "info@orsogrigiotrento.com",
                "contact:fax": "+39 0461 222692",
                "contact:phone": "+39 0461 984400",
                "contact:website": "http://www.orsogrigiotrento.com/",
                "cuisine": "italian;regional",
                "diet:vegan": "no",
                "diet:vegetarian": "yes",
                "name": "Orso Grigio",
                "opening_hours": "Mo-Sa 12:00-14:30,19:30-22:30; Su Off",
                "ref:vatin": "IT02364860227",
                "wheelchair": "no"
            }
        },
        {
            "type": "node",
            "id": 432473109,
            "lat": 46.0635732,
            "lon": 11.1310495,
            "tags": {
                "addr:housenumber": "148",
                "addr:street": "Via Milano",
                "alt_name": "Bavarese",
                "amenity": "restaurant",
                "contact:email": "info@doctrento.it",
                "contact:fax": "+39 0461 223120",
                "contact:phone": "+39 0461 262022",
                "contact:website": "http://www.doctrento.it",
                "cuisine": "pizza;regional;breakfast;coffee_shop;bavarian;italian;italian_pizza;local;german;friture;seafood;ice_cream;pasta;chicken;sausage;cake;tea",
                "internet_access": "wlan",
                "name": "Ristorante Pizzeria Doc",
                "opening_hours": "Mo-Fr 08:30-14:30, 18:00-00:00; Sa-Su 17:00-00:00",
                "operator": "Santoni Adam",
                "ref:vatin": "IT02087800229"
            }
        },
        {
            "type": "node",
            "id": 432987066,
            "lat": 46.0377468,
            "lon": 11.1053814,
            "tags": {
                "amenity": "restaurant",
                "cuisine": "pizza",
                "name": "Pizzeria da Mimmo"
            }
        },
        {
            "type": "node",
            "id": 439723633,
            "lat": 45.9693135,
            "lon": 11.2326193,
            "tags": {
                "addr:city": "Altopiano della Vigolana",
                "addr:country": "IT",
                "addr:district": "Centa San Nicol\u00f2",
                "addr:housenumber": "13",
                "addr:postcode": "38049",
                "addr:province": "TN",
                "addr:street": "Via Don Carlo Rossi",
                "amenity": "restaurant",
                "capacity": "100",
                "cuisine": "italian_pizza",
                "delivery": "no",
                "name": "Pizzeria Tre novembre",
                "smoking": "outside",
                "takeaway": "yes",
                "toilets:wheelchair": "yes",
                "wheelchair": "yes"
            }
        },
        {
            "type": "node",
            "id": 440503597,
            "lat": 46.1976615,
            "lon": 11.2032566,
            "tags": {
                "addr:city": "Cembra",
                "addr:country": "IT",
                "addr:postcode": "38034",
                "addr:street": "Localit\u00e0 Lago Santo",
                "amenity": "restaurant",
                "bar": "yes",
                "contact:email": "info@happy-ranch.it",
                "contact:fax": "+39 0461 683802",
                "contact:phone": "+39 0461 683518",
                "contact:website": "http://www.happy-ranch.com",
                "name": "Happy Ranch"
            }
        },
        {
            "type": "node",
            "id": 440909576,
            "lat": 45.799573,
            "lon": 11.4281915,
            "tags": {
                "amenity": "restaurant",
                "name": "Trattoria Barricata"
            }
        },
        {
            "type": "node",
            "id": 440909577,
            "lat": 45.8288778,
            "lon": 11.4365444,
            "tags": {
                "addr:city": "Roana",
                "addr:country": "IT",
                "addr:housenumber": "239",
                "addr:postcode": "36010",
                "addr:street": "Via Campiello",
                "amenity": "restaurant",
                "cuisine": "local",
                "name": "Casetta Rossa",
                "phone": "+39 0424 694265"
            }
        },
        {
            "type": "node",
            "id": 441414833,
            "lat": 46.0474674,
            "lon": 11.1451618,
            "tags": {
                "amenity": "restaurant",
                "cuisine": "indian",
                "cuisine_1": "pizza",
                "name": "Ristorante Bar Pizzeria",
                "takeaway": "yes"
            }
        },
        {
            "type": "node",
            "id": 441880019,
            "lat": 45.8690229,
            "lon": 10.874958,
            "tags": {
                "addr:housenumber": "24",
                "addr:street": "Via Benaco",
                "amenity": "restaurant",
                "indoor_seating": "yes",
                "name": "La Terrazza",
                "opening_hours": "We-Mo,PH 11:30-15:00, Mo-Su,PH 18:30-22:30",
                "outdoor_seating": "no",
                "website": "http://www.allaterrazza.com"
            }
        },
        {
            "type": "node",
            "id": 442218340,
            "lat": 46.0668061,
            "lon": 11.1405959,
            "tags": {
                "addr:city": "Trento",
                "addr:housenumber": "40",
                "addr:street": "Via Mesiano",
                "amenity": "restaurant",
                "cuisine": "italian",
                "name": "Trattoria \"Al Parol\""
            }
        },
        {
            "type": "node",
            "id": 442283784,
            "lat": 45.7998394,
            "lon": 10.8376699,
            "tags": {
                "amenity": "restaurant",
                "cuisine": "pizza",
                "name": "Pizzeria Paola"
            }
        },
        {
            "type": "node",
            "id": 442298009,
            "lat": 45.7809901,
            "lon": 10.8208417,
            "tags": {
                "addr:city": "Malcesine",
                "addr:country": "IT",
                "addr:housenumber": "134",
                "addr:street": "Via Navene Vecchia",
                "amenity": "restaurant",
                "cuisine": "italian",
                "name": "Alla Rama"
            }
        },
        {
            "type": "node",
            "id": 442909405,
            "lat": 45.772358,
            "lon": 10.8166247,
            "tags": {
                "amenity": "restaurant",
                "name": "Ristorante Al Cervo"
            }
        },
        {
            "type": "node",
            "id": 442928069,
            "lat": 45.8546169,
            "lon": 10.9463143,
            "tags": {
                "amenity": "restaurant",
                "name": "La Mela"
            }
        },
        {
            "type": "node",
            "id": 445562136,
            "lat": 45.8748472,
            "lon": 11.033247,
            "tags": {
                "amenity": "restaurant",
                "name": "Pizzeria Okay"
            }
        },
        {
            "type": "node",
            "id": 447854234,
            "lat": 45.7093801,
            "lon": 11.2550421,
            "tags": {
                "amenity": "restaurant",
                "name": "Capriol"
            }
        },
        {
            "type": "node",
            "id": 449096185,
            "lat": 46.3839586,
            "lon": 11.2585115,
            "tags": {
                "amenity": "restaurant",
                "name": "Hotel Restaurant Seegarten",
                "tourism": "hotel",
                "website": "https://www.seegarten.it/"
            }
        },
        {
            "type": "node",
            "id": 455222701,
            "lat": 45.7760235,
            "lon": 10.8183473,
            "tags": {
                "amenity": "restaurant",
                "name": "Le Dase"
            }
        },
        {
            "type": "node",
            "id": 455223652,
            "lat": 45.7900266,
            "lon": 10.8278324,
            "tags": {
                "amenity": "restaurant",
                "name": "Ca Vecia"
            }
        },
        {
            "type": "node",
            "id": 456257793,
            "lat": 45.7629196,
            "lon": 10.8077349,
            "tags": {
                "addr:city": "Malcesine",
                "addr:housenumber": "9",
                "addr:postcode": "37018",
                "addr:street": "Via D. Turazza",
                "amenity": "restaurant",
                "cuisine": "pizza",
                "name": "Capri",
                "outdoor_seating": "yes",
                "phone": "+39 045 7401478"
            }
        },
        {
            "type": "node",
            "id": 456265099,
            "lat": 45.7649811,
            "lon": 10.8084334,
            "tags": {
                "amenity": "restaurant",
                "cuisine": "pasta;pizza",
                "name": "Mignon",
                "outdoor_seating": "yes",
                "phone": "+39 045 7401777"
            }
        },
        {
            "type": "node",
            "id": 456268045,
            "lat": 45.7647041,
            "lon": 10.8073108,
            "tags": {
                "amenity": "restaurant",
                "name": "Da Pedro",
                "phone": "+39 045 7401081"
            }
        },
        {
            "type": "node",
            "id": 456269254,
            "lat": 45.7649654,
            "lon": 10.8073853,
            "tags": {
                "addr:city": "Malcesine",
                "addr:country": "IT",
                "addr:place": "Porto Vecchio",
                "addr:street": "Piazza Magenta",
                "amenity": "restaurant",
                "brewery": "Birra Moretti",
                "contact:name": "Ilario Quatrida",
                "cuisine": "italian;pizza",
                "drive_in": "no",
                "name": "Al Marinaio",
                "opening_hours": "Mo-Su 11:00-14:00; 18:00-24:00",
                "outdoor_seating": "yes",
                "payment:coins": "yes",
                "payment:meal_voucher": "yes",
                "payment:notes": "yes",
                "phone": "+39 045 7400214",
                "smoking": "no",
                "source": "local_knowledge",
                "wheelchair": "limited"
            }
        },
        {
            "type": "node",
            "id": 456270980,
            "lat": 45.7650847,
            "lon": 10.8074458,
            "tags": {
                "addr:city": "Malcesine",
                "addr:country": "IT",
                "addr:housenumber": "1",
                "addr:postcode": "37018",
                "addr:street": "Via Casella",
                "amenity": "restaurant",
                "contact:website": "http://www.ristorantelapacemalcesine.com",
                "name": "La Pace",
                "opening_hours": "Mo-Su 09:00-24:00",
                "phone": "+39 045 740057",
                "smoking": "outside",
                "toilets:wheelchair": "no",
                "wheelchair": "limited"
            }
        },
        {
            "type": "node",
            "id": 456830729,
            "lat": 46.0780116,
            "lon": 11.2780202,
            "tags": {
                "amenity": "restaurant",
                "is_in": "Canezza, Trentino-Alto Adige, Italy",
                "name": "Osteria storica Morelli"
            }
        },
        {
            "type": "node",
            "id": 457521149,
            "lat": 45.7949703,
            "lon": 11.0960875,
            "tags": {
                "amenity": "restaurant",
                "cuisine": "italian",
                "name": "La Svolta"
            }
        },
        {
            "type": "node",
            "id": 457551203,
            "lat": 45.8803073,
            "lon": 10.8556849,
            "tags": {
                "addr:city": "Riva del Garda",
                "addr:country": "IT",
                "addr:housenumber": "100",
                "addr:postcode": "38066",
                "addr:street": "Viale Rovereto",
                "amenity": "restaurant",
                "cuisine": "italian",
                "indoor_seating": "yes",
                "name": "Pizzeria Bavaria",
                "outdoor_seating": "no"
            }
        },
        {
            "type": "node",
            "id": 457557561,
            "lat": 46.2782174,
            "lon": 11.3852989,
            "tags": {
                "amenity": "restaurant",
                "name": "Fraulalm - Malga Fraul",
                "name:de": "Fraulalm",
                "name:it": "Malga Fraul"
            }
        },
        {
            "type": "node",
            "id": 457652887,
            "lat": 46.2870549,
            "lon": 11.381995,
            "tags": {
                "amenity": "restaurant",
                "name": "Ebner Rast"
            }
        },
        {
            "type": "node",
            "id": 459656419,
            "lat": 46.1431234,
            "lon": 10.9660326,
            "tags": {
                "addr:city": "Molveno",
                "addr:country": "IT",
                "addr:housenumber": "4",
                "addr:postcode": "38018",
                "addr:street": "Via Cima Tosa",
                "amenity": "restaurant",
                "contact:email": "info@tavernalabotte.it",
                "contact:fax": "+39 0461 587340",
                "contact:mobile": "+39 348 3033396",
                "contact:phone": "+39 0461 586948",
                "contact:website": "http://www.tavernalabotte.it/",
                "name": "Taverna La Botte",
                "ref:vatin": "IT00641710223"
            }
        },
        {
            "type": "node",
            "id": 459656425,
            "lat": 46.1406246,
            "lon": 10.9619447,
            "tags": {
                "amenity": "restaurant",
                "name": "Al Caminetto"
            }
        },
        {
            "type": "node",
            "id": 462127221,
            "lat": 46.0992927,
            "lon": 10.6953547,
            "tags": {
                "amenity": "restaurant",
                "cuisine": "agritur",
                "name": "Baite di Pr\u00e0"
            }
        },
        {
            "type": "node",
            "id": 463189395,
            "lat": 46.0675785,
            "lon": 11.1202669,
            "tags": {
                "addr:city": "Trento",
                "addr:country": "IT",
                "addr:housenumber": "1",
                "addr:postcode": "38122",
                "addr:street": "Piazza Santa Teresa Verzeri",
                "amenity": "restaurant",
                "contact:email": "info@aivicoli.it",
                "contact:phone": "+39 0461 260673",
                "contact:website": "http://www.aivicoli.it/",
                "name": "Ai Vicoli",
                "opening_hours": "Su Off",
                "outdoor_seating": "yes"
            }
        },
        {
            "type": "node",
            "id": 468069349,
            "lat": 46.0760979,
            "lon": 11.1240728,
            "tags": {
                "amenity": "restaurant",
                "cuisine": "pizza",
                "diet:vegetarian": "yes",
                "name": "Ristorante Pizzeria Nuova Castelli",
                "opening_hours": "Mo-Fr 12:00-14:30,18:30-23:30; Sa,Su 18:30-23:30",
                "wheelchair": "yes"
            }
        },
        {
            "type": "node",
            "id": 469091810,
            "lat": 46.3916713,
            "lon": 11.4653356,
            "tags": {
                "amenity": "restaurant",
                "name": "Garnischgerhof"
            }
        },
        {
            "type": "node",
            "id": 470256244,
            "lat": 46.4552667,
            "lon": 11.2399826,
            "tags": {
                "addr:city": "Eppan an der Weinstra\u00dfe - Appiano sulla Strada del Vino",
                "addr:hamlet": "St. Michael - San Michele",
                "addr:housenumber": "9",
                "addr:postcode": "39057",
                "addr:street": "Matschatscher Weg - Strada Masaccio",
                "air_conditioning": "yes",
                "amenity": "restaurant",
                "bar": "yes",
                "brand": "Steinegger",
                "brewery": "Forst Kronen",
                "contact:email": "info@steinegger.it",
                "contact:facebook": "https://www.facebook.com/DerSteineggerEppan/",
                "contact:phone": "+39 0471 662248",
                "contact:website": "https://www.steinegger.it",
                "cuisine": "italian;regional",
                "diet:gluten_free": "yes",
                "diet:vegetarian": "yes",
                "ele": "614",
                "internet_access": "yes",
                "internet_access:fee": "customers",
                "name": "Steinegger",
                "opening_hours": "PH,Mo-Su 12:00-21:00; We,Th off",
                "operator": "Familie v. Eisenstecken",
                "outdoor_seating": "yes",
                "payment:bancomat": "yes",
                "payment:cash": "yes",
                "payment:mastercard": "yes",
                "payment:visa": "yes",
                "ref:vatin": "IT02912130214",
                "rooms": "30",
                "start_date": "1669",
                "tourism": "hotel"
            }
        },
        {
            "type": "node",
            "id": 470259436,
            "lat": 46.4547772,
            "lon": 11.2636727,
            "tags": {
                "amenity": "restaurant",
                "cuisine": "pizza",
                "name": "\u00dcberetscher Keller Restaurant Pizzeria"
            }
        },
        {
            "type": "node",
            "id": 471114151,
            "lat": 46.0736674,
            "lon": 11.3016006,
            "tags": {
                "amenity": "restaurant",
                "name": "Aquila Nera"
            }
        },
        {
            "type": "node",
            "id": 471114173,
            "lat": 46.0747718,
            "lon": 11.3027339,
            "tags": {
                "amenity": "restaurant",
                "name": "Albergo ristorante Kamauz"
            }
        },
        {
            "type": "node",
            "id": 472092067,
            "lat": 46.1315158,
            "lon": 11.3682325,
            "tags": {
                "amenity": "restaurant",
                "name": "agritur Scalzerhof"
            }
        },
        {
            "type": "node",
            "id": 478522448,
            "lat": 46.0943119,
            "lon": 11.2334908,
            "tags": {
                "amenity": "restaurant",
                "name": "Pizzeria Comparsa - Al Baracca"
            }
        },
        {
            "type": "node",
            "id": 478534965,
            "lat": 46.0788379,
            "lon": 11.2037412,
            "tags": {
                "amenity": "restaurant",
                "name": "Ristorante pizzeria La Corte"
            }
        },
        {
            "type": "node",
            "id": 478679524,
            "lat": 46.0764157,
            "lon": 11.2075404,
            "tags": {
                "amenity": "restaurant",
                "name": "Ristorante Nikoli"
            }
        },
        {
            "type": "node",
            "id": 479311071,
            "lat": 46.4030335,
            "lon": 11.5253955,
            "tags": {
                "amenity": "restaurant",
                "is_in": "Bewaller",
                "name": "H\u00e4usler Sam"
            }
        },
        {
            "type": "node",
            "id": 482018936,
            "lat": 46.1291452,
            "lon": 11.2447454,
            "tags": {
                "amenity": "restaurant",
                "name": "La scardola"
            }
        },
        {
            "type": "node",
            "id": 482531366,
            "lat": 46.0613829,
            "lon": 11.2428217,
            "tags": {
                "amenity": "restaurant",
                "name": "Osteria Al Moro"
            }
        },
        {
            "type": "node",
            "id": 482716381,
            "lat": 46.0587325,
            "lon": 11.2374663,
            "tags": {
                "amenity": "restaurant",
                "name": "Alla Rotonda"
            }
        },
        {
            "type": "node",
            "id": 482849666,
            "lat": 46.0618088,
            "lon": 11.2417648,
            "tags": {
                "amenity": "restaurant",
                "name": "Cristallo"
            }
        },
        {
            "type": "node",
            "id": 484919953,
            "lat": 46.1589433,
            "lon": 11.3282197,
            "tags": {
                "amenity": "restaurant",
                "cuisine": "regional",
                "name": "Agritur Malga Stramaiolo"
            }
        },
        {
            "type": "node",
            "id": 489680926,
            "lat": 46.0503024,
            "lon": 11.2568822,
            "tags": {
                "amenity": "restaurant",
                "cuisine": "pizza",
                "name": "Pizzeria Baitella"
            }
        },
        {
            "type": "node",
            "id": 489869145,
            "lat": 45.8687443,
            "lon": 10.8755678,
            "tags": {
                "addr:city": "Torbole sul Garda",
                "addr:housenumber": "15",
                "addr:postcode": "38069",
                "addr:street": "Via Benaco",
                "amenity": "restaurant",
                "cuisine": "pizza",
                "indoor_seating": "yes",
                "name": "Casa Beust",
                "opening_hours": "Mo-Su,PH 11:00-24:00",
                "outdoor_seating": "yes"
            }
        },
        {
            "type": "node",
            "id": 491426469,
            "lat": 45.8838758,
            "lon": 10.8387996,
            "tags": {
                "addr:city": "Riva del Garda",
                "addr:country": "IT",
                "addr:housenumber": "16",
                "addr:postcode": "38066",
                "addr:street": "Piazza Catena",
                "amenity": "restaurant",
                "cuisine": "italian",
                "indoor_seating": "yes",
                "name": "Nazionale",
                "outdoor_seating": "no",
                "phone": "+39 0464 552507"
            }
        },
        {
            "type": "node",
            "id": 493169757,
            "lat": 45.6503358,
            "lon": 10.9893763,
            "tags": {
                "amenity": "restaurant",
                "cuisine": "regional",
                "description": "Goat farm. All kinds of Goat cheese and goat mild products.",
                "name": "Malga Faggioli",
                "shop": "dairy",
                "tourism": "attraction"
            }
        },
        {
            "type": "node",
            "id": 497059302,
            "lat": 46.0676326,
            "lon": 11.31628,
            "tags": {
                "amenity": "restaurant",
                "name": "Agritur Tinglerhof"
            }
        },
        {
            "type": "node",
            "id": 497065140,
            "lat": 46.0056784,
            "lon": 11.2726206,
            "tags": {
                "addr:city": "Caldonazzo",
                "addr:country": "IT",
                "addr:housenumber": "2",
                "addr:place": "Localit\u00e0 Brenta",
                "addr:postcode": "38052",
                "addr:province": "TN",
                "addr:street": "Localit\u00e0 Brenta",
                "amenity": "restaurant",
                "name": "Al Sole",
                "opening_hours": "Tu-Su 11:30-14:30,18:30-24:00",
                "phone": "+39 0461 718192",
                "website": "http://ristopizzasole.com/"
            }
        },
        {
            "type": "node",
            "id": 497092919,
            "lat": 46.0270136,
            "lon": 11.2296822,
            "tags": {
                "addr:city": "Pergine Valsugana",
                "addr:country": "IT",
                "addr:hamlet": "Valcanover",
                "addr:housenumber": "3",
                "addr:postcode": "38057",
                "addr:street": "Via di Mezzo Lago",
                "amenity": "restaurant",
                "contact:email": "albergo.valcanover@virgilio.it",
                "contact:mobile": "+39 346 740 4082",
                "contact:phone": "+39 0461 548 037",
                "cuisine": "regional",
                "facebook": "http://www.facebook.com/pages/Albergo-Ristorante-Pizzeria-Valcanover",
                "name": "Ristorante Valcanover",
                "opening_hours": "Mo-Su 08:00-24:00",
                "source": "local_knowledge",
                "website": "http://www.albergovalcanover.it"
            }
        },
        {
            "type": "node",
            "id": 497092958,
            "lat": 46.0319673,
            "lon": 11.2297645,
            "tags": {
                "addr:city": "Pergine Valsugana",
                "addr:country": "IT",
                "addr:housenumber": "13",
                "addr:street": "Localit\u00e0 Valcanover",
                "amenity": "restaurant",
                "contact:phone": "+39 0461 512282",
                "cuisine": "pizza",
                "name": "Giropizza VIP"
            }
        },
        {
            "type": "node",
            "id": 497095123,
            "lat": 46.0383649,
            "lon": 11.2370537,
            "tags": {
                "amenity": "restaurant",
                "cuisine": "italian",
                "name": "La Darsena"
            }
        },
        {
            "type": "node",
            "id": 498751319,
            "lat": 46.083944,
            "lon": 11.3164742,
            "tags": {
                "addr:city": "Frassilongo",
                "addr:country": "IT",
                "addr:housenumber": "1",
                "addr:postcode": "38050",
                "addr:street": "Poun Van Spitz",
                "amenity": "restaurant",
                "bar": "yes",
                "brewery": "various",
                "contact:phone": "+39 333 474 2208",
                "cuisine": "italian;regional",
                "name": "Van Spitz",
                "outdoor_seating": "yes",
                "service:bicycle:ebike": "yes"
            }
        },
        {
            "type": "node",
            "id": 503587221,
            "lat": 46.4405828,
            "lon": 11.4003031,
            "tags": {
                "amenity": "restaurant",
                "name": "Bauer im Wald",
                "opening_hours": "May-Oct: Tu-Su 11:00-15:00 || Jul-Aug: Mo 11:00-15:00",
                "operator": "Familie Pfeifer",
                "phone": "+39 0471 616330",
                "website": "http://bauerimwald.com"
            }
        },
        {
            "type": "node",
            "id": 504305392,
            "lat": 45.7830214,
            "lon": 10.7629236,
            "tags": {
                "amenity": "restaurant",
                "cuisine": "regional",
                "name": "Primavera",
                "opening_hours": "We-Mo 12:00-15:00, 18:00-22:00; Tu off",
                "outdoor_seating": "yes"
            }
        },
        {
            "type": "node",
            "id": 506781537,
            "lat": 45.8825265,
            "lon": 10.8567684,
            "tags": {
                "addr:city": "Riva del Garda",
                "addr:housenumber": "10",
                "addr:postcode": "38066",
                "addr:street": "Via Restel de Fer",
                "amenity": "restaurant",
                "cuisine": "regional",
                "email": "info@resteldefer.com",
                "indoor_seating": "yes",
                "name": "Restel de Fer",
                "outdoor_seating": "no",
                "phone": "+39 0464553481",
                "website": "https://www.resteldefer.com"
            }
        },
        {
            "type": "node",
            "id": 510963459,
            "lat": 45.8903019,
            "lon": 10.8624376,
            "tags": {
                "addr:country": "IT",
                "addr:hamlet": "Sant'Alessandro",
                "addr:housenumber": "19",
                "addr:postcode": "38066",
                "addr:street": "Via Sant'Alessandro",
                "amenity": "restaurant",
                "contact:website": "www.trattoriasantalessandro.com",
                "indoor_seating": "yes",
                "name": "Trattoria Sant'Alessandro",
                "outdoor_seating": "yes",
                "phone": "+39 0464 661476"
            }
        },
        {
            "type": "node",
            "id": 511197998,
            "lat": 45.9168932,
            "lon": 10.832553,
            "tags": {
                "addr:city": "Tenno",
                "addr:country": "IT",
                "addr:housenumber": "29",
                "addr:postcode": "38060",
                "addr:street": "Via per San Lorenzo",
                "amenity": "restaurant",
                "contact:phone": "+39 0464 500638",
                "indoor_seating": "yes",
                "name": "Ristorante Castello",
                "outdoor_seating": "no",
                "website": "https://www.ristorantecastellotenno.com/"
            }
        },
        {
            "type": "node",
            "id": 511198005,
            "lat": 45.9174613,
            "lon": 10.8328756,
            "tags": {
                "addr:city": "Tenno",
                "addr:country": "IT",
                "addr:housenumber": "1",
                "addr:postcode": "38060",
                "addr:street": "Via dei Laghi",
                "amenity": "restaurant",
                "contact:email": "info@gardaslowemotion.it",
                "contact:facebook": "https://m.facebook.com/anticacroce/",
                "contact:phone": "+39 0464 500620",
                "indoor_seating": "yes",
                "name": "Hotel ristorante Antica Croce",
                "outdoor_seating": "yes",
                "tourism": "hotel",
                "website": "https://gardaslowemotion.it/it/"
            }
        },
        {
            "type": "node",
            "id": 537513269,
            "lat": 46.1336736,
            "lon": 11.2474135,
            "tags": {
                "amenity": "restaurant",
                "name": "La Vecchia Segheria"
            }
        },
        {
            "type": "node",
            "id": 538308384,
            "lat": 46.4874586,
            "lon": 11.3458727,
            "tags": {
                "amenity": "restaurant",
                "cuisine": "italian",
                "name": "La Sinfonia"
            }
        },
        {
            "type": "node",
            "id": 538835090,
            "lat": 46.4826063,
            "lon": 11.3424494,
            "tags": {
                "amenity": "restaurant",
                "cuisine": "regional",
                "name": "Trattoria Sarda \"Il Nuraghe\"",
                "name:de": "Sardisches Restaurant \"Il Nuraghe\""
            }
        },
        {
            "type": "node",
            "id": 538835829,
            "lat": 46.481854,
            "lon": 11.3417647,
            "tags": {
                "amenity": "restaurant",
                "cuisine": "italian",
                "name": "Ristorante \"Stella Alpina\""
            }
        },
        {
            "type": "node",
            "id": 538835832,
            "lat": 46.4821951,
            "lon": 11.3420563,
            "tags": {
                "amenity": "restaurant",
                "cuisine": "pizza",
                "name": "Pizza Live"
            }
        },
        {
            "type": "node",
            "id": 538841348,
            "lat": 46.4812166,
            "lon": 11.3425844,
            "tags": {
                "amenity": "restaurant",
                "cuisine": "asian",
                "name": "Aladin Restaurant"
            }
        },
        {
            "type": "node",
            "id": 540371369,
            "lat": 46.5124093,
            "lon": 11.2099626,
            "tags": {
                "air_conditioning": "no",
                "amenity": "restaurant",
                "name": "Jausenstation Moarhof",
                "opening_hours": "Fr-Mo 11:00-17:00; PH off"
            }
        },
        {
            "type": "node",
            "id": 544634432,
            "lat": 45.7796703,
            "lon": 10.7498819,
            "tags": {
                "addr:city": "Tremosine sul Garda",
                "addr:housenumber": "20",
                "addr:street": "Via Rocchetta",
                "amenity": "restaurant",
                "cuisine": "regional",
                "name": "La Rocchetta",
                "phone": "+39 0365 953250",
                "website": "http://www.ristorantelarocchetta.it/"
            }
        },
        {
            "type": "node",
            "id": 544655390,
            "lat": 45.7766741,
            "lon": 10.7601579,
            "tags": {
                "addr:housenumber": "24",
                "addr:postcode": "25010",
                "addr:street": "Via Benaco",
                "amenity": "restaurant",
                "cuisine": "regional",
                "email": "info@laforra.com",
                "name": "La Forra",
                "phone": "+39 0365 918166",
                "website": "http://www.laforra.com/"
            }
        },
        {
            "type": "node",
            "id": 546185076,
            "lat": 46.1582629,
            "lon": 11.1405538,
            "tags": {
                "addr:city": "Pal\u00f9",
                "addr:housenumber": "13",
                "addr:postcode": "38030",
                "addr:street": "Piazza degli Alpini",
                "amenity": "restaurant",
                "cuisine": "regional",
                "name": "Agriturismo Simoni",
                "opening_hours": "Th-Sa 18:00-22:00",
                "phone": "+39 0461 684 381"
            }
        },
        {
            "type": "node",
            "id": 552938079,
            "lat": 46.1862908,
            "lon": 11.2520623,
            "tags": {
                "addr:housenumber": "51",
                "addr:street": "Frazione Piazzo",
                "amenity": "restaurant",
                "name": "Ristorante allo Scalco"
            }
        },
        {
            "type": "node",
            "id": 554977838,
            "lat": 45.9088843,
            "lon": 10.8687096,
            "tags": {
                "addr:city": "Arco",
                "addr:housenumber": "84",
                "addr:postcode": "38062",
                "addr:street": "Via Santa Caterina",
                "amenity": "restaurant",
                "cuisine": "pizza",
                "indoor_seating": "yes",
                "name": "Peter Pan",
                "outdoor_seating": "no",
                "phone": "+39 0464 513623"
            }
        },
        {
            "type": "node",
            "id": 556402530,
            "lat": 46.4854945,
            "lon": 11.2997648,
            "tags": {
                "addr:city": "Bolzano - Bozen",
                "addr:housenumber": "22",
                "addr:postcode": "39100",
                "addr:street": "Via Castel Firmiano",
                "amenity": "restaurant",
                "email": "angelika.riegler@brennercom.net",
                "name": "Mendelhof",
                "outdoor_seating": "yes",
                "phone": "+39 0471 633371",
                "ref:vatin": "IT00390290211",
                "website": "https://www.ristorantemendelhof.it/"
            }
        },
        {
            "type": "node",
            "id": 556679636,
            "lat": 46.0719552,
            "lon": 11.1244405,
            "tags": {
                "addr:city": "Trento",
                "addr:country": "IT",
                "addr:housenumber": "29",
                "addr:postcode": "38122",
                "addr:street": "Via Torre Verde",
                "amenity": "restaurant",
                "contact:fax": "+39 0461 231545",
                "contact:mobile": "+39 366 4576910",
                "contact:phone": "+39 0461 231545",
                "cuisine": "pizza;regional",
                "description": "presenti ascensori per carrozzina ma necessitano di chiamata del personale",
                "diet:vegan": "yes",
                "diet:vegetarian": "yes",
                "layer": "-1",
                "name": "Ristorante Pizzeria Green Tower",
                "opening_hours": "Tu-Su 12:00-14:30,19:00-02:00; Sa 19:00-02:00",
                "operator": "Green Tower S.R.L.",
                "ref:vatin": "IT02305330223",
                "wheelchair": "yes"
            }
        },
        {
            "type": "node",
            "id": 557149998,
            "lat": 46.0688418,
            "lon": 11.1215699,
            "tags": {
                "addr:city": "Trento",
                "addr:country": "IT",
                "addr:housenumber": "4",
                "addr:postcode": "38122",
                "addr:street": "Via delle Orne",
                "amenity": "restaurant",
                "contact:email": "chiste-2011@live.it",
                "contact:phone": "+39 0461 262979",
                "cuisine": "neapolitan;pizza;fish",
                "diet:vegetarian": "yes",
                "name": "Ristorante Pizzeria Chist\u00e8",
                "opening_hours": "Mo-Su 11:30-23:30",
                "outdoor_seating": "yes",
                "wheelchair": "yes"
            }
        },
        {
            "type": "node",
            "id": 557150278,
            "lat": 46.0683381,
            "lon": 11.1198472,
            "tags": {
                "addr:city": "Trento",
                "addr:housenumber": "211",
                "addr:postcode": "38122",
                "addr:street": "Piazza Santa Maria Maggiore",
                "amenity": "restaurant",
                "contact:email": "rosadorotrento@gmail.com",
                "contact:facebook": "ristoranterosadoro",
                "contact:foursquare": "4c333da6ac0ab713e6af1c1e",
                "contact:phone": "+39 0461 261792",
                "contact:tripadvisor": "1510628",
                "contact:website": "https://www.ristoranterosadoro.com",
                "contact:yelp": "rosa-d-oro-trento",
                "cuisine": "regional;pizza",
                "delivery": "no",
                "level": "0",
                "name": "Rosa d'Oro",
                "opening_hours": "Mo-Sa 12:00-14:30,19:00-24:00; Su off; ",
                "operator": "Ristora snc di Calz\u00e0 Stefano & C.",
                "outdoor_seating": "yes",
                "ref:vatin": "IT01880620222",
                "reservation": "yes",
                "smoking": "outside",
                "takeaway": "no",
                "toilets": "yes",
                "wheelchair": "limited"
            }
        },
        {
            "type": "node",
            "id": 557197347,
            "lat": 46.0674557,
            "lon": 11.117882,
            "tags": {
                "addr:city": "Trento",
                "addr:country": "IT",
                "addr:housenumber": "11/1",
                "addr:postcode": "38122",
                "addr:street": "Via Don Giovanni Battista Zanella",
                "amenity": "restaurant",
                "contact:phone": "+39 0461 234435",
                "contact:website": "http://www.ristoranteorient.it",
                "cuisine": "chinese;japanese;thai",
                "layer": "-1",
                "name": "Orient",
                "ref:vatin": "IT01713660221",
                "wheelchair": "no"
            }
        },
        {
            "type": "node",
            "id": 557197352,
            "lat": 46.0669201,
            "lon": 11.120637,
            "tags": {
                "addr:city": "Trento",
                "addr:country": "IT",
                "addr:housenumber": "77",
                "addr:postcode": "38122",
                "addr:street": "Via Giuseppe Verdi",
                "amenity": "restaurant",
                "contact:phone": "+39 0461 237209",
                "cuisine": "pizza",
                "name": "Al Duomo",
                "outdoor_seating": "yes"
            }
        },
        {
            "type": "node",
            "id": 558628481,
            "lat": 46.0701955,
            "lon": 11.1250694,
            "tags": {
                "amenity": "restaurant",
                "cuisine": "italian",
                "name": "Antica Trattoria Due Mori"
            }
        },
        {
            "type": "node",
            "id": 561075784,
            "lat": 46.3140079,
            "lon": 11.2048007,
            "tags": {
                "amenity": "restaurant",
                "name": "Halbweg",
                "wheelchair": "yes"
            }
        },
        {
            "type": "node",
            "id": 561075863,
            "lat": 46.3137248,
            "lon": 11.2062854,
            "tags": {
                "addr:street": "Maso - Hofstatt",
                "amenity": "restaurant",
                "cuisine": "buschenschank",
                "name": "Buschenschank Santlhof"
            }
        },
        {
            "type": "node",
            "id": 562715340,
            "lat": 46.1385343,
            "lon": 11.1139574,
            "tags": {
                "addr:city": "Lavis",
                "addr:country": "IT",
                "addr:housenumber": "2",
                "addr:postcode": "38015",
                "addr:street": "Piazza Manci",
                "amenity": "restaurant",
                "cuisine": "pizza;regional",
                "name": "Pizzeria Corona",
                "tourism": "hotel"
            }
        },
        {
            "type": "node",
            "id": 562715344,
            "lat": 46.1400657,
            "lon": 11.1114152,
            "tags": {
                "amenity": "restaurant",
                "cuisine": "pizza",
                "name": "Pizzeria Dolomiti",
                "opening_hours": "Mo-We,Fr 11:45-14:30,18:30-23:00; Sa,Su 18:30-23:00",
                "phone": "+39 0461 246795"
            }
        },
        {
            "type": "node",
            "id": 563754421,
            "lat": 46.0685089,
            "lon": 11.1234058,
            "tags": {
                "addr:city": "Trento",
                "addr:country": "IT",
                "addr:housenumber": "20",
                "addr:postcode": "38122",
                "addr:street": "Via Malpaga",
                "amenity": "restaurant",
                "name": "L'angolo di Ste",
                "outdoor_seating": "yes"
            }
        },
        {
            "type": "node",
            "id": 563754485,
            "lat": 46.0697703,
            "lon": 11.1254356,
            "tags": {
                "addr:city": "Trento",
                "addr:country": "IT",
                "addr:housenumber": "6",
                "addr:postcode": "38122",
                "addr:street": "Vicolo San Marco",
                "amenity": "restaurant",
                "check_date:opening_hours": "2021-07-05",
                "contact:fax": "+39 0461 269155",
                "contact:instagram": "pizzeriaallagrotta",
                "contact:phone": "+39 0461 987197",
                "cuisine": "pizza;regional",
                "diet:vegan": "yes",
                "diet:vegetarian": "yes",
                "name": "Alla Grotta",
                "opening_hours": "Mo-Sa 12:00-14:30,18:00-24:00",
                "operator": "Gepim s.n.c. di Calz\u00e0 Stefano & C.",
                "ref:vatin": "IT01585010224",
                "wheelchair": "yes"
            }
        },
        {
            "type": "node",
            "id": 563754506,
            "lat": 46.0710994,
            "lon": 11.1258433,
            "tags": {
                "addr:city": "Trento",
                "addr:housenumber": "13",
                "addr:postcode": "38122",
                "addr:street": "Piazza della Mostra",
                "amenity": "restaurant",
                "bar": "yes",
                "contact:facebook": "https://it-it.facebook.com/allamostra/",
                "contact:phone": "+39 0461 1823484",
                "cuisine": "pizza;italian;indian",
                "entrance": "yes",
                "name": "Alla Mostra",
                "outdoor_seating": "yes",
                "ref:vatin": "IT02324920228",
                "takeaway": "yes",
                "toilets:wheelchair": "no",
                "wheelchair": "yes"
            }
        },
        {
            "type": "node",
            "id": 568433875,
            "lat": 46.0174296,
            "lon": 11.3344358,
            "tags": {
                "amenity": "restaurant",
                "name": "Agritur Maso Rosso"
            }
        },
        {
            "type": "node",
            "id": 570699433,
            "lat": 46.0396592,
            "lon": 11.2424562,
            "tags": {
                "amenity": "restaurant",
                "name": "Meridiana"
            }
        },
        {
            "type": "node",
            "id": 570818625,
            "lat": 46.0685346,
            "lon": 11.123725,
            "tags": {
                "addr:city": "Trento",
                "addr:country": "IT",
                "addr:housenumber": "14",
                "addr:postcode": "38122",
                "addr:street": "Via del Simonino",
                "amenity": "restaurant",
                "contact:email": "reservation.cadeicobj@gmail.com",
                "contact:phone": "+39 0461 262730",
                "cuisine": "pizza;regional",
                "name": "Ca' dei Gobj - Ristorante Birreria",
                "opening_hours": "Mo-Su 11:30-14:00,18:30-22:00",
                "operator": "La San Marco SRL",
                "outdoor_seating": "yes",
                "ref:vatin": "IT02011980220",
                "toilets:wheelchair": "yes",
                "wheelchair": "yes"
            }
        },
        {
            "type": "node",
            "id": 583378546,
            "lat": 45.9200846,
            "lon": 10.8701365,
            "tags": {
                "amenity": "restaurant",
                "cuisine": "regional",
                "name": "Pizzeria Ristorante Centrale"
            }
        },
        {
            "type": "node",
            "id": 583550447,
            "lat": 46.0737011,
            "lon": 11.1341996,
            "tags": {
                "addr:city": "Trento",
                "addr:country": "IT",
                "addr:housenumber": "65",
                "addr:postcode": "38122",
                "addr:street": "Via alle Laste",
                "amenity": "restaurant",
                "contact:email": "info@pizzerialaste.it",
                "contact:fax": "+39 0461 265000",
                "contact:phone": "+39 0461 231570",
                "contact:website": "https://ristorantelastetrento.it",
                "cuisine": "italian;pizza",
                "fixme": "addr:number: il sito d\u00e0 come numero civico il 39. verificare",
                "name": "Trattoria Pizzeria Laste",
                "opening_hours": "Mo-Su 11:30-14:00,18:30-23:00; Tu off",
                "ref:vatin": "IT01424840229"
            }
        },
        {
            "type": "node",
            "id": 597642282,
            "lat": 45.9682132,
            "lon": 11.5780227,
            "tags": {
                "amenity": "restaurant",
                "ele": "1393",
                "name": "Malga Buson",
                "place": "locality"
            }
        },
        {
            "type": "node",
            "id": 604989124,
            "lat": 46.4779667,
            "lon": 11.280309,
            "tags": {
                "amenity": "restaurant"
            }
        },
        {
            "type": "node",
            "id": 605256062,
            "lat": 45.7674522,
            "lon": 11.455842,
            "tags": {
                "addr:city": "Chiuppano",
                "addr:housenumber": "40",
                "addr:postcode": "36010",
                "addr:street": "Via Costo",
                "amenity": "restaurant",
                "cuisine": "pizza;italian",
                "email": "info@panevin.it",
                "name": "Pan e Vin",
                "opening_hours": "Tu-Fr 12:00-14:30,18:00-00:00; Sa-Su 18:00-00:00",
                "phone": "+39 0445 891012",
                "website": "https://www.panevin.it/"
            }
        },
        {
            "type": "node",
            "id": 605970341,
            "lat": 45.9393837,
            "lon": 11.5517332,
            "tags": {
                "amenity": "restaurant",
                "ele": "1530",
                "name": "Rifugio Campomulo",
                "tourism": "alpine_hut"
            }
        },
        {
            "type": "node",
            "id": 606228615,
            "lat": 46.006716,
            "lon": 10.6979423,
            "tags": {
                "amenity": "restaurant",
                "name": "Carlone"
            }
        },
        {
            "type": "node",
            "id": 608058937,
            "lat": 46.4376758,
            "lon": 11.2163572,
            "tags": {
                "amenity": "restaurant",
                "name": "Restaurant PanoramaHotel Penegal"
            }
        },